[
  {
    "id": "RS-001",
    "title": "Large Pothole on Main Street",
    "description": "Located near the intersection with Oak Avenue, causing traffic delays and vehicle damage.",
    "type": "pothole",
    "status": "open",
    "priority": "high",
    "date": "2024-01-15",
    "state": "rajasthan",
    "district": "jaipur",
    "location": "Main Street, Downtown"
  },
  {
    "id": "RS-002",
    "title": "Flickering Street Light",
    "description": "Street light on Elm Street has been flickering intermittently, affecting visibility at night.",
    "type": "streetlight",
    "status": "in-progress",
    "priority": "medium",
    "date": "2024-01-14",
    "state": "uttar-pradesh",
    "district": "lucknow",
    "location": "Elm Street, Residential"
  },
  {
    "id": "RS-003",
    "title": "Blocked Storm Drain",
    "description": "Storm drain was completely blocked, causing water to pool on the road during rain.",
    "type": "drainage",
    "status": "closed",
    "priority": "high",
    "date": "2024-01-10",
    "state": "delhi",
    "district": "new-delhi",
    "location": "Park Avenue, Commercial"
  },
  {
    "id": "RS-004",
    "title": "Damaged Speed Limit Sign",
    "description": "Speed limit sign is bent and partially obscured, making it difficult to read.",
    "type": "damaged-sign",
    "status": "open",
    "priority": "low",
    "date": "2024-01-12",
    "state": "maharashtra",
    "district": "mumbai",
    "location": "Highway 101, North"
  },
  {
    "id": "RS-005",
    "title": "Cracked Road Surface",
    "description": "Large cracks have appeared on the road surface, creating a bumpy ride for vehicles.",
    "type": "road-surface",
    "status": "in-progress",
    "priority": "medium",
    "date": "2024-01-11",
    "state": "karnataka",
    "district": "bangalore",
    "location": "Broadway, Central"
  },
  {
    "id": "RS-006",
    "title": "Malfunctioning Traffic Signal",
    "description": "Traffic signal was stuck on red, causing major traffic congestion during rush hour.",
    "type": "traffic-signal",
    "status": "closed",
    "priority": "urgent",
    "date": "2024-01-08",
    "state": "rajasthan",
    "district": "jodhpur",
    "location": "5th & Main, Downtown"
  },
  {
    "id": "RS-007",
    "title": "Uneven Sidewalk",
    "description": "Sidewalk has become uneven due to tree root growth, creating a tripping hazard.",
    "type": "sidewalk",
    "status": "open",
    "priority": "low",
    "date": "2024-01-13",
    "state": "uttar-pradesh",
    "district": "kanpur",
    "location": "Maple Street, Residential"
  },
  {
    "id": "RS-008",
    "title": "Multiple Small Potholes",
    "description": "Several small potholes have formed in the residential area, affecting local traffic.",
    "type": "pothole",
    "status": "in-progress",
    "priority": "medium",
    "date": "2024-01-09",
    "state": "maharashtra",
    "district": "pune",
    "location": "Pine Street, Residential"
  },
  {
    "id": "RS-009",
    "title": "Overflowing Drain",
    "description": "Drain was overflowing during heavy rain, causing minor flooding on the street.",
    "type": "drainage",
    "status": "closed",
    "priority": "medium",
    "date": "2024-01-07",
    "state": "karnataka",
    "district": "mysore",
    "location": "River Road, Industrial"
  }
  ,
  {
    "id": "RS-010",
    "title": "Sunken Road at Market Corner",
    "description": "Section of road has sunk after recent rains; vehicles scrape underneath.",
    "type": "road-surface",
    "status": "open",
    "priority": "high",
    "date": "2024-02-05",
    "state": "gujarat",
    "district": "ahmedabad",
    "location": "Market Corner, Old Town"
  },
  {
    "id": "RS-011",
    "title": "Broken Speed Camera",
    "description": "Automated speed camera is damaged and not recording violations.",
    "type": "other",
    "status": "in-progress",
    "priority": "medium",
    "date": "2024-02-02",
    "state": "maharashtra",
    "district": "pune",
    "location": "Ring Road, Zone 4"
  },
  {
    "id": "RS-012",
    "title": "Streetlight Out on Coastal Road",
    "description": "Several streetlights are out along the coastal stretch, reducing night visibility.",
    "type": "streetlight",
    "status": "open",
    "priority": "high",
    "date": "2024-03-01",
    "state": "goa",
    "district": "north-goa",
    "location": "Coastal Road, Beachside"
  },
  {
    "id": "RS-013",
    "title": "Collapsed Kerb Near School",
    "description": "Kerb has collapsed creating a hazard for pedestrians and school children.",
    "type": "sidewalk",
    "status": "in-progress",
    "priority": "urgent",
    "date": "2024-03-05",
    "state": "kerala",
    "district": "ernakulam",
    "location": "School Road, Eastside"
  },
  {
    "id": "RS-014",
    "title": "Faded Road Markings on Highway",
    "description": "Lane markings have faded significantly on a busy highway stretch.",
    "type": "road-surface",
    "status": "open",
    "priority": "medium",
    "date": "2024-03-10",
    "state": "tamil-nadu",
    "district": "chennai",
    "location": "Highway 45, Near Flyover"
  },
  {
    "id": "RS-015",
    "title": "Damaged Pedestrian Signal",
    "description": "Pedestrian crossing signal is not functioning at busy junction.",
    "type": "traffic-signal",
    "status": "in-progress",
    "priority": "high",
    "date": "2024-03-12",
    "state": "punjab",
    "district": "ludhiana",
    "location": "Bazaar Junction"
  },
  {
    "id": "RS-016",
    "title": "Pothole Cluster Near Bus Stop",
    "description": "Several potholes by the bus stop causing boarding difficulties.",
    "type": "pothole",
    "status": "open",
    "priority": "medium",
    "date": "2024-04-01",
    "state": "uttar-pradesh",
    "district": "varanasi",
    "location": "Bus Stop 9, Riverfront Road"
  },
  {
    "id": "RS-017",
    "title": "Temporary Flooding at Underpass",
    "description": "Underpass floods during heavy rains; water remains for hours.",
    "type": "drainage",
    "status": "open",
    "priority": "urgent",
    "date": "2024-04-10",
    "state": "west-bengal",
    "district": "kolkata",
    "location": "Central Underpass"
  },
  {
    "id": "RS-018",
    "title": "Signboard Missing on Bypass",
    "description": "Directional signboard was removed, causing confusion for drivers.",
    "type": "damaged-sign",
    "status": "closed",
    "priority": "low",
    "date": "2024-04-15",
    "state": "madhya-pradesh",
    "district": "indore",
    "location": "Bypass Road"
  },
  {
    "id": "RS-019",
    "title": "Traffic Light Timing Issue",
    "description": "Signal timings are causing long queues during peak hours.",
    "type": "traffic-signal",
    "status": "in-progress",
    "priority": "high",
    "date": "2024-05-02",
    "state": "telangana",
    "district": "hyderabad",
    "location": "KBR Junction"
  },
  {
    "id": "RS-020",
    "title": "Loose Manhole Cover",
    "description": "Manhole cover is loose and rattles when vehicles pass over it.",
    "type": "other",
    "status": "open",
    "priority": "urgent",
    "date": "2024-05-05",
    "state": "odisha",
    "district": "khordha",
    "location": "Market Lane"
  },
  {
    "id": "RS-021",
    "title": "Graffiti on Highway Sign",
    "description": "Important directional sign is covered by graffiti, reducing readability.",
    "type": "damaged-sign",
    "status": "closed",
    "priority": "low",
    "date": "2024-05-10",
    "state": "assam",
    "district": "guwahati",
    "location": "NH27 Near Flyover"
  },
  {
    "id": "RS-022",
    "title": "Obstructed Drain Grate",
    "description": "Leaves and debris blocking drain grate causing slow drainage.",
    "type": "drainage",
    "status": "in-progress",
    "priority": "medium",
    "date": "2024-05-12",
    "state": "bihar",
    "district": "patna",
    "location": "Gandhi Chowk"
  },
  {
    "id": "RS-023",
    "title": "Cracked Footpath Outside Mall",
    "description": "Footpath slabs cracked and uneven outside the shopping mall entrance.",
    "type": "sidewalk",
    "status": "open",
    "priority": "medium",
    "date": "2024-06-01",
    "state": "kerala",
    "district": "thiruvananthapuram",
    "location": "Mall Entrance, Sector 3"
  },
  {
    "id": "RS-024",
    "title": "Night-time Visibility Issue",
    "description": "Reflective road studs are missing on a sharp bend, increasing accident risk.",
    "type": "road-surface",
    "status": "open",
    "priority": "high",
    "date": "2024-06-05",
    "state": "himachal-pradesh",
    "district": "shimla",
    "location": "Hill Bend, KM 24"
  },
  {
    "id": "RS-025",
    "title": "Bus Shelter Roof Damage",
    "description": "Bus shelter roof has holes and needs repair to protect waiting passengers.",
    "type": "other",
    "status": "in-progress",
    "priority": "low",
    "date": "2024-06-12",
    "state": "manipur",
    "district": "imphal-east",
    "location": "Central Bus Stop"
  },
  {
    "id": "RS-026",
    "title": "Illegal Dumping at Roadside",
    "description": "Household waste dumped alongside road leading to blockage and pests.",
    "type": "other",
    "status": "open",
    "priority": "medium",
    "date": "2024-07-01",
    "state": "tripura",
    "district": "west-tripura",
    "location": "Service Road, Block B"
  },
  {
    "id": "RS-027",
    "title": "Road Shoulder Erosion",
    "description": "Road shoulder eroded after a landslip, creating a narrow carriageway.",
    "type": "road-surface",
    "status": "in-progress",
    "priority": "high",
    "date": "2024-07-10",
    "state": "arunachal-pradesh",
    "district": "tawang",
    "location": "Mountain Pass Road"
  },
  {
    "id": "RS-028",
    "title": "Signal Visibility Obstructed by Tree",
    "description": "Overgrown tree branches block the view of traffic signals at junction.",
    "type": "traffic-signal",
    "status": "open",
    "priority": "medium",
    "date": "2024-08-01",
    "state": "uttarakhand",
    "district": "dehradun",
    "location": "Green Park Junction"
  },
  {
    "id": "RS-029",
    "title": "Sidewalk Obstructed by Vendor Stalls",
    "description": "Vendors occupying sidewalks forcing pedestrians onto the road.",
    "type": "sidewalk",
    "status": "in-progress",
    "priority": "medium",
    "date": "2024-08-15",
    "state": "west-bengal",
    "district": "howrah",
    "location": "Market Street"
  }
]
